Latitude,Longitude,Address
40.7130047,-74.01318645,"One World Trade Center, 1, Fulton Street, Westfield World Trade Center, Manhattan Community Board 1, New York County, NYC, New York, 10048, United States of America"
40.76152415,-73.97194013,"575 Madison Avenue, 575, Madison Avenue, Diamond District, Manhattan Community Board 5, New York County, NYC, New York, 10022, United States of America"
40.7484284,-73.98565462,"Empire State Building, 350, 5th Avenue, Korea Town, Manhattan Community Board 5, New York County, NYC, New York, 10018, United States of America"
40.755543599999996,-73.9846863,"Bank of America Tower, 115, West 42nd Street, Diamond District, Manhattan Community Board 5, New York County, NYC, New York, 10036, United States of America"
45.5152701,-122.67441770000002,"Three World Trade Center, 26, Southwest Salmon Street, World Trade Center, Portland Downtown, Portland, Multnomah County, Oregon, 97204, United States of America"
40.75160275,-73.97534406,"Chrysler Building, East 43rd Street, Tudor City, Manhattan Community Board 6, New York County, NYC, New York, 10017, United States of America"
40.75589705,-73.98927342,"The New York Times Building, 620, 8th Avenue, Koreatown, Manhattan Community Board 5, New York County, NYC, New York, 10011, United States of America"
40.76547975,-73.97910382,"One57, West 57th Street, Diamond District, Manhattan Community Board 5, New York County, NYC, New York, 10019, United States of America"
